[
    {
        "id": 20000,
        "name": "Gadex Club Esportiu, A",
        "shield": "",
        "address": "C/ de Sol i Pedrís, 59",
        "location": "Sabadell",
        "zipcode": "08203",
        "province": "Barcelona",
        "coordinates": [2.118533,41.539074],
        "fieldname": "Pabellón municipal de Sabadell",
        "fieldtype": "Pabellón",
        "parking":true
    },
    {
        "id": 20001,
        "name": "Pou Escorial, A",
        "shield": "",
        "address": "Ronda de Collsalarca, 4",
        "location": "Sabadell",
        "zipcode": "08207",
        "province": "Barcelona",
        "coordinates":[2.096659,41.566868],
        "fieldname": "Pabellón Municipal Norte",
        "fieldtype": "Pabellón",
        "parking":true
    },
    {
        "id": 20002,
        "name": "Fundació Terrassa FC 1906, A",
        "shield": "",
        "address": "C/ Sardenya, 32",
        "location": "Terrassa",
        "zipcode": "08224",
        "province": "Barcelona",
        "coordinates":[1.993297,41.563021],
        "fieldname": "Pabellón municipal La Maurina",
        "fieldtype": "Pabellón",
        "parking":true
    },
    {
        "id": 20003,
        "name": "Escola Pia Sabadell, C.E, A",
        "shield": "",
        "address": "C/ de Garcilaso, 98",
        "location": "Sabadell",
        "zipcode": "08201",
        "province": "Barcelona",
        "coordinates":[2.102916,41.549486],
        "fieldname": "Pabellón Escola Pia Sabadell",
        "fieldtype": "Pabellón",
        "parking":true
    },
    {
        "id": 20004,
        "name": "Futsal Terrassa Les Saveurs Club Esportiu, A",
        "shield": "",
        "address": "C/ Sierra Nevada, 57",
        "location": "Terrassa",
        "zipcode": "08227",
        "province": "Barcelona",
        "coordinates":[2.039165,41.572243],
        "fieldname": "Pista municipal de Les Arenes (2)",
        "fieldtype": "Pista",
        "parking":true
    },
    {
        "id": 20005,
        "name": "Oar Gràcia Sbd, E.F., A",
        "shield": "",
        "address": "C/ Boccaccio, 62",
        "location": "Sabadell",
        "zipcode": "08192",
        "province": "Barcelona",
        "coordinates":[2.098224,41.534488],
        "fieldname": "Pabellón municipal Oar Gràcia Sabadell",
        "fieldtype": "Pabellón",
        "parking":true
    },
    {
        "id": 20006,
        "name": "Horta Futbol Sala Club, A",
        "shield": "",
        "address": "C/ d'Olympe de Gouges, s/n",
        "location": "Barcelona",
        "zipcode": "08035",
        "coordinates":[2.142869,41.435953],
        "province": "Barcelona",
        "fieldname": "Pabellón CEM Mundet",
        "fieldtype": "Pabellón",
        "parking":true
    },
    {
        "id": 20007,
        "name": "Acció Sant Martí, A",
        "shield": "",
        "address": "C/ de la Costa Daurada, 7",
        "location": "Barcelona",
        "zipcode": "08030",
        "province": "Barcelona",
        "coordinates":[2.202232,41.438374],
        "fieldname": "Pabellón CEM Bon Pastor",
        "fieldtype": "Pabellón",
        "parking": true
        
    },
    {
        "id": 20008,
        "name": "Egara Futsal 2019, C.F. SALA",
        "shield": "",
        "address": "C/ Jacint Badiella, 5",
        "location": "Terrassa",
        "zipcode": "08225",
        "province": "Barcelona",
        "coordinates":[2.017124, 41.591618],
        "fieldname": "Pabellón Club Egara Hockey",
        "fieldtype": "Pabellón",
        "parking":true
    },
    {
        "id": 20009,
        "name": "Penya Barça Barbera del Valles",
        "shield": "",
        "address": "Ronda de l'Est, 29",
        "location": "Barberà del Vallès",
        "zipcode": "08210",
        "province": "Barcelona",
        "coordinates":[2.121308,41.511839],
        "fieldname": "Pabellón municipal Elisa Badia",
        "fieldtype": "",
        "parking":true
    },
    {
        "id": 20010,
        "name": "CFS Les Glòries 2014, B",
        "shield": "",
        "address": "C/ d'Hondures, 24",
        "location": "Barcelona",
        "zipcode": "08027",
        "province": "Barcelona",
        "coordinates":[2.190692,41.419632],
        "fieldname": "Pista cubierta municipal La Segrera",
        "fieldtype": "Polideportivo",
        "parking": true
    },
    {
        "id": 20011,
        "name": "Castellbisbal, F.S, B",
        "shield": "",
        "address": "C/ Agricultura, 8",
        "location": "Castellbisbal",
        "zipcode": "08755",
        "province": "Barcelona",
        "coordinates":[1.978514,41.47868],
        "fieldname": "Pabellón municipal de Castellbisbal",
        "fieldtype": "Pabellón",
        "parking": true
    }
]
